City_ID,City,Lat,Lng,Max Temp,Humidity,Cloudiness,Wind Speed,Country,Date
0,yellowknife,62.456,-114.3525,50.52,89,75,4.0,CA,1696373852
1,adamstown,-25.066,-130.1015,68.72,75,81,18.7,PN,1696374069
2,myitkyina,25.3833,97.4,73.99,100,68,0.94,MM,1696373879
3,papatowai,-46.5619,169.4708,62.92,41,99,12.24,NZ,1696373773
4,juan griego,11.0817,-63.9655,83.79,79,100,9.13,VE,1696374070
5,edinburgh of the seven seas,-37.0676,-12.3116,50.52,66,92,14.09,SH,1696374070
6,palmas,-10.2128,-48.3603,82.27,74,40,2.3,BR,1696373852
7,ushuaia,-54.8,-68.3,47.86,53,75,11.5,AR,1696373891
8,san antonio de pale,-1.4014,5.6325,77.76,81,100,7.05,GQ,1696374070
9,anadyr,64.75,177.4833,36.1,64,20,13.42,RU,1696374071
10,usman',52.0466,39.7288,50.09,55,27,4.0,RU,1696374071
11,port-aux-francais,-49.35,70.2167,39.97,93,100,46.93,TF,1696374071
12,gangtok,27.3333,88.6167,62.74,96,100,0.87,IN,1696374071
13,birjand,32.8663,59.2211,57.67,30,0,4.61,IR,1696374071
14,haiku-pauwela,20.9219,-156.3051,76.51,74,20,8.61,US,1696374072
15,mahonda,-6.45,39.4667,77.77,83,67,15.17,TZ,1696374072
16,tsarevo,42.1667,27.85,57.92,76,9,3.29,BG,1696374072
17,santa ana,33.7456,-117.8678,90.41,51,0,9.22,US,1696374072
18,yuzhno-kurilsk,44.0306,145.8556,57.31,74,100,2.06,RU,1696374072
19,manapparai,10.6,78.4167,79.66,86,68,2.46,IN,1696374072
20,cabo san lucas,22.8909,-109.9124,92.61,73,52,8.88,MX,1696373953
21,nolinsk,57.5596,49.9363,45.55,85,92,7.11,RU,1696374073
22,avarua,-21.2078,-159.775,75.25,73,75,18.41,CK,1696374073
23,katsuura,35.1333,140.3,70.99,73,100,8.7,JP,1696374073
24,whitehorse,60.7161,-135.0538,38.17,81,75,9.22,CA,1696373913
25,port lincoln,-34.7333,135.8667,53.96,55,51,17.85,AU,1696374074
26,stanley,54.868,-1.6985,50.77,85,20,10.36,GB,1696373812
27,college,64.8569,-147.8028,34.07,90,100,4.61,US,1696373784
28,hikari,33.955,131.95,64.38,67,20,3.44,JP,1696374074
29,longyearbyen,78.2186,15.6401,28.24,69,75,17.27,SJ,1696374074
30,kerikeri,-35.2268,173.9474,62.91,62,1,1.01,NZ,1696374074
31,lingyuan,41.24,119.4011,51.01,55,1,4.9,CN,1696374075
32,eldersburg,39.4037,-76.9503,77.65,73,3,3.56,US,1696373786
33,keflavik,64.0049,-22.5624,43.23,75,20,4.61,IS,1696374075
34,namtsy,62.7161,129.6658,32.05,83,100,6.35,RU,1696374075
35,bilibino,68.0546,166.4372,10.76,93,77,2.91,RU,1696373823
36,solwezi,-12.1688,26.3894,66.94,47,99,5.73,ZM,1696374075
37,choyr,46.3611,108.3611,35.44,61,0,5.99,MN,1696374076
38,bethel,41.3712,-73.414,74.62,82,2,2.39,US,1696373904
39,hithadhoo,-0.6,73.0833,81.59,80,66,12.08,MV,1696374076
40,prince rupert,54.3161,-130.3201,53.69,96,100,28.77,CA,1696374076
41,holualoa,19.6228,-155.9522,81.55,71,33,5.01,US,1696374076
42,wailua homesteads,22.0669,-159.378,84.13,67,9,7.0,US,1696374077
43,waitangi,-43.9535,-176.5597,51.82,74,92,8.01,NZ,1696374077
44,snina,48.9886,22.151,55.35,79,44,4.97,SK,1696374077
45,bayganin,48.6947,55.8742,57.94,61,100,6.49,KZ,1696374077
46,tripoli,32.8752,13.1875,74.82,66,0,9.64,LY,1696374077
47,nova vicosa,-17.8919,-39.3719,75.7,84,98,17.29,BR,1696374078
48,robbah,33.2797,6.9098,71.24,49,0,10.38,DZ,1696374078
49,kosigi,15.85,77.2667,79.11,69,98,2.44,IN,1696374078
50,grytviken,-54.2811,-36.5092,33.55,75,100,3.74,GS,1696374078
51,port elizabeth,-33.918,25.5701,64.09,87,75,5.99,ZA,1696373778
52,the pas,53.8251,-101.2541,50.02,81,100,11.5,CA,1696374078
53,ust-tsilma,65.441,52.1498,38.61,81,100,10.0,RU,1696374079
54,olonkinbyen,70.9221,-8.7187,33.06,60,100,13.06,SJ,1696374079
55,punta arenas,-53.15,-70.9167,46.51,66,20,10.36,CL,1696374079
56,pacific grove,36.6177,-121.9166,78.24,83,3,5.99,US,1696374079
57,ancud,-41.8697,-73.8203,47.26,83,27,4.32,CL,1696374079
58,ilulissat,69.2167,-51.1,28.42,59,17,0.0,GL,1696374080
59,margaret river,-33.95,115.0667,56.16,69,96,3.6,AU,1696374080
60,puerto natales,-51.7236,-72.4875,41.86,88,34,6.73,CL,1696374080
61,babu,24.4167,111.5167,75.24,93,46,4.07,CN,1696374080
62,hamilton,39.1834,-84.5333,85.44,51,0,6.91,US,1696373784
63,dolinsk,47.35,142.8,53.98,74,14,4.09,RU,1696374081
64,albany,42.6001,-73.9662,73.81,84,0,4.05,US,1696374081
65,ust'-ilimsk,58.0006,102.6619,42.44,91,100,10.0,RU,1696374081
66,port macquarie,-31.4333,152.9167,76.89,57,2,20.92,AU,1696374081
67,bredasdorp,-34.5322,20.0403,56.97,97,93,5.93,ZA,1696374081
68,sur,22.5667,59.5289,86.52,42,2,6.29,OM,1696373804
69,talnakh,69.4865,88.3972,33.21,95,100,14.63,RU,1696374082
70,san patricio,28.017,-97.5169,93.18,63,66,11.5,US,1696374082
71,bonthe,7.5264,-12.505,78.06,88,99,5.93,SL,1696374082
72,howrah,22.5892,88.3103,78.8,94,100,6.91,IN,1696374082
73,wladyslawowo,54.7909,18.4009,58.55,74,100,27.0,PL,1696374082
74,shitanjing,39.2342,106.3439,55.0,35,98,4.97,CN,1696374083
75,harper,4.375,-7.7169,76.46,81,31,7.09,LR,1696373802
76,macapa,0.0389,-51.0664,87.78,62,20,11.5,BR,1696374079
77,utrik,11.2278,169.8474,83.25,76,55,18.16,MH,1696374083
78,invercargill,-46.4,168.35,64.02,53,93,11.01,NZ,1696374084
79,udachny,66.4167,112.4,25.45,85,100,16.64,RU,1696374084
80,zeya,53.75,127.2667,44.89,92,100,1.99,RU,1696374085
81,port mathurin,-19.6833,63.4167,73.47,79,1,5.93,MU,1696374086
82,iqaluit,63.7506,-68.5145,33.53,93,75,16.11,CA,1696374086
83,talara,-4.5772,-81.2719,75.96,69,0,18.95,PE,1696374086
84,long beach,33.767,-118.1892,88.83,68,0,12.66,US,1696373831
85,puerto ayora,-0.7393,-90.3518,84.16,93,70,1.99,EC,1696374086
86,kolonia,50.9333,6.95,57.88,79,0,6.91,DE,1696374006
87,tazovsky,67.4667,78.7,32.29,86,14,13.82,RU,1696374087
88,tiksi,71.6872,128.8694,26.26,96,100,5.64,RU,1696374087
89,ribeira grande,38.5167,-28.7,71.78,91,91,13.0,PT,1696374087
90,camocim,-2.9022,-40.8411,78.96,75,43,18.25,BR,1696374087
91,zouerate,22.7187,-12.4521,92.26,15,23,9.84,MR,1696373919
92,kingston,17.997,-76.7936,88.75,81,75,9.22,JM,1696374026
93,tomatlan,19.9333,-105.25,86.05,76,100,5.26,MX,1696374088
94,pisco,-13.7,-76.2167,68.05,77,0,19.57,PE,1696374059
95,forio,40.7342,13.8646,71.53,72,90,9.35,IT,1696373797
96,qaqortoq,60.7167,-46.0333,36.55,92,99,1.59,GL,1696374088
97,sochaczew,52.2294,20.2384,60.26,88,100,19.57,PL,1696374088
98,codrington,-38.2667,141.9667,53.49,69,61,4.21,AU,1696374088
99,afaahiti,-17.75,-149.2833,82.27,84,16,18.79,PF,1696374089
100,kone,-21.0595,164.8658,76.06,64,79,9.98,NC,1696373798
101,necochea,-38.5473,-58.7368,49.32,91,100,7.18,AR,1696374089
102,inyati,-19.6756,28.8469,57.45,47,10,7.27,ZW,1696374089
103,dudinka,69.4058,86.1778,33.62,86,33,18.99,RU,1696374089
104,delta del tigre,-34.7633,-56.3853,59.41,88,75,11.5,UY,1696374090
105,dali,25.7,100.1833,61.56,95,63,4.41,CN,1696374090
106,labrador city,52.9463,-66.9114,42.71,61,40,5.75,CA,1696374008
107,tanout,14.9709,8.8879,87.62,31,96,8.79,NE,1696374090
108,igarka,67.4667,86.5833,30.07,90,8,13.85,RU,1696373824
109,isafjordur,66.0755,-23.124,40.71,85,100,25.41,IS,1696374033
110,st. john's,47.5649,-52.7093,58.96,81,100,10.36,CA,1696374091
111,mitu,1.1983,-70.1733,84.45,52,97,2.44,CO,1696374091
112,paita,-5.0892,-81.1144,69.19,78,71,17.87,PE,1696374091
113,desaguadero,-16.5656,-69.0417,57.6,47,50,9.51,PE,1696374092
114,atafu village,-8.5421,-172.5159,84.54,75,65,17.43,TK,1696374092
115,motueka,-41.1333,173.0167,60.1,43,13,2.48,NZ,1696374092
116,cortez,37.3489,-108.5859,63.03,43,83,10.02,US,1696374092
117,constantia,44.1833,28.65,52.7,67,3,8.08,RO,1696373801
118,taoudenni,22.6783,-3.9836,90.72,17,1,15.39,ML,1696374093
119,palmer,42.1584,-72.3287,75.81,76,0,1.95,US,1696373797
120,lahaina,20.8783,-156.6825,85.24,71,6,5.77,US,1696374064
121,lebu,-37.6167,-73.65,49.44,73,7,9.8,CL,1696374093
122,flying fish cove,-10.4217,105.6791,74.88,83,100,10.36,CX,1696374093
123,namdrik,5.5994,168.1028,84.34,71,42,7.14,MH,1696374094
124,touros,-5.1989,-35.4608,78.44,70,38,15.14,BR,1696374094
125,zyryanskoye,56.8306,86.6258,45.75,78,100,7.7,RU,1696374094
126,arraial do cabo,-22.9661,-42.0278,73.26,78,75,4.61,BR,1696373925
127,sandnessjoen,66.0217,12.6316,43.32,84,99,6.89,NO,1696374094
128,carnarvon,-24.8667,113.6333,64.49,39,0,18.9,AU,1696374094
129,villa gesell,-37.2639,-56.973,53.06,86,100,9.8,AR,1696374095
130,puerto armuelles,8.2833,-82.8667,81.09,74,99,5.01,PA,1696374095
131,walvis bay,-22.9575,14.5053,58.15,82,15,13.8,NA,1696374095
132,cockburn town,21.4612,-71.1419,84.15,78,97,15.03,TC,1696374095
133,west island,-12.1568,96.8225,75.18,73,100,17.27,CC,1696374096
134,mount pearl,47.5166,-52.7813,58.14,81,100,10.36,CA,1696374096
135,port shepstone,-30.7414,30.455,68.47,81,2,14.27,ZA,1696374096
136,sungai penuh,-2.0833,101.3833,63.3,96,100,1.41,ID,1696374096
137,fale old settlement,-9.3852,-171.2468,83.71,77,33,18.84,TK,1696374096
138,thompson,55.7435,-97.8558,48.36,93,100,3.44,CA,1696374097
139,pacocha,-17.5833,-71.3333,64.35,89,39,8.21,PE,1696374097
140,chibougamau,49.9168,-74.3659,55.02,94,40,2.3,CA,1696373827
141,chonchi,-42.6128,-73.8092,52.81,89,81,0.78,CL,1696374097
142,fallon,39.4735,-118.7774,67.91,48,75,8.05,US,1696374097
143,xuchang,34.0167,113.8167,66.29,81,99,2.04,CN,1696374098
144,port augusta,-32.5,137.7667,55.44,61,57,20.69,AU,1696374098
145,blackmans bay,-43.0167,147.3167,52.74,68,100,5.32,AU,1696374098
146,hato mayor del rey,18.7628,-69.2568,78.33,91,76,6.15,DO,1696374098
147,luderitz,-26.6481,15.1594,67.95,51,10,9.55,NA,1696374098
148,georgetown,5.4112,100.3354,79.02,94,20,3.44,MY,1696374091
149,nemuro,43.3236,145.575,57.45,71,100,2.46,JP,1696374099
150,alupka,44.4167,34.05,57.04,52,1,1.77,UA,1696374099
151,ust-nera,64.5667,143.2,29.21,74,100,3.0,RU,1696374099
152,colonia,50.9333,6.95,57.88,79,0,6.91,DE,1696374099
153,santa ines,-3.6667,-45.38,87.26,50,100,9.44,BR,1696374026
154,hawaiian paradise park,19.5933,-154.9731,83.88,76,2,4.0,US,1696374026
155,saipan,15.1355,145.701,84.27,76,24,18.88,MP,1696374100
156,santiago del estero,-27.7951,-64.2615,79.59,34,0,18.86,AR,1696374100
157,alesund,62.4723,6.1549,54.75,86,40,16.11,NO,1696374100
158,klyuchi,52.2667,79.1667,41.41,54,0,5.79,RU,1696374100
159,port alfred,-33.5906,26.891,62.19,92,44,9.06,ZA,1696374101
160,alofi,-19.0595,-169.9187,75.09,86,100,21.85,NU,1696374101
161,tadine,-21.55,167.8833,72.64,69,47,22.62,NC,1696374101
162,gilmer,32.7287,-94.9424,89.42,30,40,10.36,US,1696374101
163,praia da vitoria,38.7333,-27.0667,71.85,94,75,10.02,PT,1696374101
164,vilhena,-12.7406,-60.1458,71.82,100,75,4.61,BR,1696374101
165,al jawf,29.5,38.75,74.66,43,92,6.04,SA,1696374102
166,warrnambool,-38.3833,142.4833,53.67,65,48,7.4,AU,1696374102
167,kristiansund,63.1115,7.732,50.05,87,100,9.22,NO,1696374102
168,broome,42.2506,-75.833,72.55,87,0,2.71,US,1696374102
169,tralee,52.2704,-9.7026,53.26,91,89,8.28,IE,1696374102
170,biryusinsk,55.9634,97.8235,34.92,92,5,5.3,RU,1696374103
171,geraldton,-28.7667,114.6,46.81,87,0,8.05,AU,1696374103
172,karagandy,49.8019,73.1021,31.95,62,4,5.03,KZ,1696374103
173,okhotsk,59.3833,143.3,44.13,59,99,2.53,RU,1696374103
174,petropavlovsk-kamchatsky,53.0452,158.6483,46.45,88,75,15.01,RU,1696374103
175,jamestown,42.097,-79.2353,76.64,64,0,8.05,US,1696373957
176,baruun-urt,46.6806,113.2792,34.75,66,13,8.28,MN,1696374104
177,san fernando de monte cristi,19.8667,-71.65,82.74,80,100,11.74,DO,1696374104
178,fortaleza,-3.7227,-38.5247,81.21,74,40,9.22,BR,1696373934
179,magadan,59.5667,150.8,43.83,53,71,8.01,RU,1696374104
180,saint-felix-de-valois,46.1668,-73.4324,77.32,71,2,3.0,CA,1696374104
181,skopin,53.8249,39.5505,48.54,70,78,10.65,RU,1696374104
182,limon,10.0,-83.0333,87.69,70,75,5.75,CR,1696374043
183,ambodifotatra,-16.9833,49.85,75.04,79,14,9.04,MG,1696374105
184,richards bay,-28.783,32.0377,67.23,66,0,4.23,ZA,1696374105
185,palmeiras de goias,-16.805,-49.9258,77.05,64,82,4.29,BR,1696374105
186,kodiak,57.79,-152.4072,46.71,51,80,3.18,US,1696374105
187,daru,-9.0763,143.2092,80.37,74,83,9.71,PG,1696374105
188,akureyri,65.6835,-18.0878,40.93,87,100,4.61,IS,1696374106
189,calbuco,-41.768,-73.1273,52.81,68,8,3.02,CL,1696374105
190,la passe,45.5549,-0.8967,58.98,77,57,8.16,FR,1696374106
191,pamandzi,-12.7967,45.2794,76.78,88,20,0.0,YT,1696374106
192,bowen,-20.0167,148.2333,74.07,77,46,6.44,AU,1696374106
193,mermoz boabab,14.7065,-17.4758,83.98,89,0,4.61,SN,1696374106
194,bokhan,53.153,103.7714,39.76,91,73,3.51,RU,1696374107
195,prado,-17.3411,-39.2208,76.53,81,95,16.46,BR,1696374107
196,lyantor,61.6195,72.1555,47.86,90,100,7.54,RU,1696374107
197,vilyuchinsk,52.9306,158.4028,47.93,78,94,5.77,RU,1696374107
198,oak grove,45.4168,-122.6401,70.03,76,100,1.99,US,1696374107
199,machico,32.7,-16.7667,76.12,78,20,14.97,PT,1696374107
200,gadzhiyevo,69.2551,33.3362,37.85,80,100,3.11,RU,1696374108
201,sitka,57.0531,-135.33,53.49,71,75,13.8,US,1696374108
202,katsuren-haebaru,26.3369,127.8719,84.97,89,100,10.36,JP,1696374108
203,princeville,45.7668,-61.2985,60.91,89,91,11.5,CA,1696374108
204,antsiranana,-12.2787,49.2917,73.53,75,31,17.58,MG,1696374108
205,binzhou,37.3667,118.0167,63.72,70,74,5.7,CN,1696374109
206,cuiaba,-15.5961,-56.0967,85.93,58,0,3.44,BR,1696373944
207,badagry,6.4167,2.8833,78.03,88,100,5.5,NG,1696374109
208,karymskoye,51.6167,114.35,28.36,83,6,5.3,RU,1696374109
209,muisne,0.6,-80.0333,75.88,78,97,10.67,EC,1696374109
210,anse royale,-4.7333,55.5167,79.38,78,40,10.36,SC,1696374110
211,ketchikan,55.3422,-131.6461,55.38,96,100,2.35,US,1696374008
212,kourou,5.1552,-52.6478,82.45,83,59,8.86,GF,1696374110
213,mili,6.0815,171.735,83.32,78,69,7.81,MH,1696374111
214,aras-asan,8.8908,126.3033,79.57,84,11,5.55,PH,1696374111
215,happy valley-goose bay,53.3168,-60.3315,44.91,49,75,8.05,CA,1696374111
216,salair,54.2312,85.7972,37.11,82,0,1.45,RU,1696374112
217,chernyshevskiy,63.0128,112.4714,28.2,96,100,8.59,RU,1696374112
218,vila franca do campo,37.7167,-25.4333,74.88,99,17,9.71,PT,1696374112
219,aitape,-3.1374,142.3475,79.34,85,94,2.01,PG,1696374112
220,bubaque,11.2833,-15.8333,82.36,80,100,9.22,GW,1696374112
221,kita,13.0349,-9.4895,74.17,88,100,3.06,ML,1696374112
222,curup,-3.4667,102.5333,65.91,95,99,1.77,ID,1696374113
223,tazacorte,28.629,-17.9293,74.37,83,0,11.5,ES,1696374113
224,enewetak,11.3474,162.3373,84.7,76,53,17.27,MH,1696374113
225,shagonar,51.5333,92.8,42.22,62,9,0.69,RU,1696374114
226,pazaryeri,39.994,29.9042,45.12,88,0,1.5,TR,1696374114
227,sisimiut,66.9395,-53.6735,33.13,75,44,8.03,GL,1696374114
228,vatutine,49.015,31.0621,52.36,49,10,8.12,UA,1696374114
229,berrotaran,-32.451,-64.3887,49.89,87,99,13.06,AR,1696374115
230,nova sintra,14.8667,-24.7167,74.28,78,5,3.98,CV,1696374115
231,iskateley,67.6803,53.1512,39.02,78,100,21.0,RU,1696374115
232,tofol,5.3248,163.0078,82.18,89,100,18.41,FM,1696374115
233,kargil,34.5667,76.1,40.77,55,5,5.41,IN,1696374116
234,mahriz,31.5917,54.4318,70.3,30,3,6.69,IR,1696374116
235,navapolatsk,55.5363,28.6424,64.72,58,100,15.48,BY,1696374117
236,tatarsk,55.219,75.9828,44.96,58,95,8.01,RU,1696374117
237,kuanda,56.3161,116.0806,28.27,70,85,1.7,RU,1696374118
238,kokoda,-8.8785,147.7407,82.02,81,51,1.83,PG,1696374118
239,meadow lake,34.8014,-106.5436,76.48,24,0,10.47,US,1696374118
240,karratha,-20.7377,116.8463,78.33,25,47,10.18,AU,1696374119
241,nuku'alofa,-21.1333,-175.2,75.54,64,75,14.97,TO,1696374119
242,balboa,2.0396,-77.2168,65.48,88,98,3.78,CO,1696373960
243,kaka,37.3482,59.6143,68.45,23,56,2.77,TM,1696374119
244,novoshakhtinskiy,44.025,132.1514,54.25,87,96,8.34,RU,1696374120
245,arawa,-6.2132,155.5367,85.73,74,98,2.44,PG,1696374120
246,hirna,9.2167,41.1,61.21,63,29,4.92,ET,1696374120
247,orapa,-21.2833,25.3667,65.32,37,41,12.66,BW,1696374120
248,witu,-2.3889,40.4382,75.76,85,91,8.81,KE,1696374120
249,lihue,21.9789,-159.3672,84.74,67,10,4.14,US,1696374120
250,show low,34.2542,-110.0298,70.09,18,0,11.5,US,1696374121
251,lensk,60.7253,114.9278,30.72,90,100,7.0,RU,1696374121
252,fort bragg,35.139,-79.006,80.44,60,0,6.91,US,1696373853
253,macaubas,-13.0194,-42.6986,78.94,56,100,4.14,BR,1696374121
254,marsh harbour,26.5412,-77.0636,80.92,68,2,11.52,BS,1696374122
255,siocon,7.7061,122.1353,80.29,81,76,3.49,PH,1696374122
256,alta,69.9689,23.2717,34.86,87,100,3.44,NO,1696374122
257,knyaze-volkonskoye,48.4642,135.4567,48.0,95,100,4.0,RU,1696374122
258,nagqu,31.5,92.0,35.17,84,4,5.01,CN,1696374123
259,junin de los andes,-39.9504,-71.0694,45.64,69,31,9.69,AR,1696374123
260,isangel,-19.55,169.2667,77.11,78,75,4.61,VU,1696374123
261,okha,53.5739,142.9478,46.78,77,92,6.82,RU,1696374124
262,aasiaat,68.7098,-52.8699,18.7,65,18,6.22,GL,1696374124
263,sidney,-33.8679,151.2073,79.34,51,0,19.57,AU,1696373928
264,smara,26.7384,-11.6719,85.87,14,72,9.4,EH,1696374124
265,jalai nur,49.45,117.7,35.55,57,1,13.91,CN,1696374124
266,enkoping,59.6361,17.0777,49.86,92,100,9.86,SE,1696374124
267,nambucca heads,-30.65,153.0,77.0,54,0,19.17,AU,1696374125
268,lewistown,40.5992,-77.5714,77.74,73,0,0.0,US,1696374011
269,unai,-16.3575,-46.9061,80.44,48,98,4.05,BR,1696374125
270,quellon,-43.1167,-73.6167,47.23,82,85,1.34,CL,1696374125
271,kofele,7.0667,38.7833,50.34,93,99,8.55,ET,1696374125
272,porbandar,21.6422,69.6093,78.31,72,13,5.5,IN,1696374126
273,romny,50.751,33.4747,50.2,60,13,8.72,UA,1696374126
274,arroyo,41.6096,-4.7969,65.1,76,0,13.8,ES,1696374126
275,puerto aysen,-45.4,-72.7,43.88,98,86,3.27,CL,1696374126
276,hermanus,-34.4187,19.2345,58.23,91,89,9.89,ZA,1696374126
277,nikolayevsk-on-amure,53.1406,140.73,46.17,90,96,1.16,RU,1696374127
278,ghat,24.9647,10.1728,81.01,34,71,10.67,LY,1696374127
279,comodoro rivadavia,-45.8667,-67.5,58.86,31,0,5.75,AR,1696374127
280,egilsstadir,65.2653,-14.3948,40.91,93,100,13.8,IS,1696374127
281,gudibanda,13.6694,77.6983,69.53,86,92,5.19,IN,1696374127
282,mungaa,-4.9667,34.8833,62.6,58,40,9.4,TZ,1696374128
283,kloulklubed,7.0419,134.2556,78.69,80,100,4.43,PW,1696374128
284,cluain meala,52.355,-7.7039,53.42,95,91,5.75,IE,1696374128
285,palikir - national government center,6.9248,158.1611,81.34,94,100,3.44,FM,1696374128
286,khandyga,62.6667,135.6,40.51,96,100,3.33,RU,1696374129
287,kayangel,8.0823,134.7173,77.7,83,100,5.61,PW,1696374129
288,san matias,-16.3667,-58.4,99.18,26,68,13.31,BO,1696374129
289,tura,25.5198,90.2201,73.17,94,100,5.35,IN,1696374129
290,pandan,14.0453,124.1694,82.65,79,98,8.81,PH,1696374130
291,polyarnyy,69.1989,33.4478,38.16,81,100,2.8,RU,1696374130
292,dingwall,57.5953,-4.4272,51.89,88,80,7.38,GB,1696374130
293,pauini,-7.7136,-66.9764,88.77,40,76,2.55,BR,1696374130
294,ngerengere,-6.75,38.1167,73.81,77,99,2.04,TZ,1696374131
295,talcher,20.95,85.2167,75.49,95,100,4.36,IN,1696374131
296,madang,-5.2246,145.7966,79.7,87,99,3.58,PG,1696374131
297,barranca,-10.75,-77.7667,65.43,87,95,9.19,PE,1696374131
298,uturoa,-16.7333,-151.4333,78.82,78,12,18.61,PF,1696374131
299,carutapera,-1.195,-46.02,79.59,78,59,10.58,BR,1696374132
300,westport,41.1415,-73.3579,74.01,78,3,1.99,US,1696374063
301,acapulco de juarez,16.8634,-99.8901,85.35,74,100,8.9,MX,1696373967
302,beyneu,45.3167,55.2,61.5,49,98,8.97,KZ,1696374132
303,vokhtoga,58.8147,41.0461,52.07,84,100,10.07,RU,1696374132
304,mizan teferi,6.9833,35.5833,62.67,92,100,2.73,ET,1696374132
305,brechin,56.7299,-2.6573,51.35,76,80,10.74,GB,1696374133
306,lompoc,34.6391,-120.4579,85.69,52,20,10.36,US,1696374084
307,minas de marcona,-15.2119,-75.1103,56.97,88,82,16.08,PE,1696374133
308,west helena,34.5507,-90.6418,85.68,26,38,8.77,US,1696374133
309,launceston,-41.45,147.1667,51.8,87,100,19.57,AU,1696373991
310,labytnangi,66.6572,66.4183,36.05,83,100,5.79,RU,1696374133
311,saldanha,-33.0117,17.9442,58.96,88,100,5.32,ZA,1696374134
312,vadso,70.0744,29.7487,35.76,80,75,6.91,NO,1696374134
313,djambala,-2.5447,14.7533,70.79,89,49,2.57,CG,1696374134
314,tsiombe,-25.3,45.4833,61.75,69,0,5.79,MG,1696374134
315,port-gentil,-0.7193,8.7815,78.76,89,75,8.05,GA,1696374135
316,goundi,9.3627,17.366,71.98,98,99,3.18,TD,1696374135
317,gizo,-8.103,156.8419,82.22,80,99,7.29,SB,1696374135
318,maxixe,-23.8597,35.3472,66.15,78,0,5.21,MZ,1696374135
319,erenhot,43.6475,111.9767,46.9,38,1,9.19,CN,1696374136
320,el nido,11.1858,119.3956,82.47,78,100,11.81,PH,1696374136
321,santa cruz,-17.8,-63.1667,91.45,49,20,20.71,BO,1696373894
322,bac lieu,9.285,105.7244,77.74,91,64,7.27,VN,1696374136
323,parsabad,39.6482,47.9174,67.51,62,54,4.14,IR,1696374137
324,kavieng,-2.5744,150.7967,83.16,74,70,4.74,PG,1696374137
325,leer,53.2316,7.461,55.94,92,5,14.07,DE,1696374137
326,lata,40.1629,-8.3327,64.92,85,97,1.28,PT,1696374137
327,weno,7.4515,151.8468,83.26,71,94,4.47,FM,1696374137
328,vorkuta,67.5,64.0,31.95,92,86,7.14,RU,1696374138
329,worland,44.0169,-107.9554,55.6,85,100,9.22,US,1696374138
330,panacan,9.2463,118.4082,80.87,77,81,5.93,PH,1696374138
331,bardai,11.65,7.2333,72.43,79,96,5.79,NG,1696374138
332,kutum,14.2,24.6667,78.04,48,87,2.17,SD,1696374138
333,nizhniy odes,63.6445,54.856,40.96,89,100,7.2,RU,1696374139
334,ambagarh chauki,20.7833,80.7167,70.54,70,100,6.35,IN,1696374139
335,tabou,4.423,-7.3528,76.28,83,20,6.76,CI,1696374139
336,bull savanna,17.8868,-77.5902,80.78,81,83,2.82,JM,1696374139
337,khvalynsk,52.4906,48.1058,51.48,80,26,4.65,RU,1696374139
338,marinette,45.1,-87.6307,78.85,68,0,9.22,US,1696374140
339,mhangura,-16.8939,30.1683,62.89,53,24,5.37,ZW,1696374140
340,puerto baquerizo moreno,-0.9,-89.6,76.19,83,75,13.8,EC,1696374140
341,kapuskasing,49.4169,-82.4331,82.49,42,20,14.97,CA,1696374131
342,vale de cambra,40.8497,-8.3939,68.68,71,100,3.36,PT,1696374140
343,masterton,-40.9597,175.6575,51.89,47,2,2.98,NZ,1696374141
344,santa elena de uairen,4.6167,-61.1333,75.31,65,92,3.83,VE,1696374141
345,buala,-8.145,159.5921,84.07,76,98,7.81,SB,1696374141
346,shingu,33.7333,135.9833,72.34,91,80,6.53,JP,1696374142
347,newbiggin-by-the-sea,55.1853,-1.5147,53.24,84,20,8.05,GB,1696374142
348,kwang binh,17.4833,106.6,78.98,89,100,2.57,VN,1696374142
349,la'ie,21.6477,-157.9253,87.76,65,5,3.0,US,1696374142
350,tughyl,47.7252,84.2063,53.69,82,96,1.54,KZ,1696374142
351,port douglas,-16.4833,145.4667,76.46,76,43,5.12,AU,1696374142
352,paracuru,-3.41,-39.0306,81.1,78,68,13.58,BR,1696374143
353,todmorden,53.7143,-2.097,54.32,94,60,1.01,GB,1696374143
354,vorgashor,67.5833,63.95,31.77,92,83,7.67,RU,1696374143
355,bamboo flat,11.7,92.7167,77.09,94,75,2.3,IN,1696374143
356,mariental,-24.6333,17.9667,83.37,23,100,8.23,NA,1696374143
357,conceicao da barra,-18.5933,-39.7322,75.16,88,100,8.3,BR,1696374144
358,hotan,37.0997,79.9269,62.33,22,82,4.52,CN,1696374144
359,camaqua,-30.8511,-51.8122,60.71,95,85,6.24,BR,1696374032
360,nogliki,51.8333,143.1667,45.34,86,10,17.0,RU,1696374144
361,sanming,26.2486,117.6186,75.04,94,16,1.9,CN,1696374144
362,torghay,49.6339,63.4981,50.86,40,15,4.92,KZ,1696374145
363,pushkinskiye gory,57.0209,28.9103,64.33,61,100,14.79,RU,1696374145
364,esil,51.9556,66.4042,48.42,55,56,6.82,KZ,1696374145
365,jalalaqsi,3.3766,45.5996,77.94,82,96,10.83,SO,1696374145
366,scottburgh,-30.2867,30.7532,67.17,91,3,12.68,ZA,1696374145
367,olyokminsk,60.3736,120.4264,22.98,92,63,3.0,RU,1696374146
368,vazante,-17.9869,-46.9078,77.18,68,30,2.37,BR,1696374146
369,veinticinco de mayo,-35.4323,-60.1727,53.98,97,100,6.64,AR,1696374146
370,nurota,40.5614,65.6886,60.4,29,1,4.74,UZ,1696374146
371,martapura,-3.4167,114.85,75.29,94,100,0.0,ID,1696374146
372,olinda,-8.0089,-34.8553,80.33,74,75,9.22,BR,1696373983
373,ploudalmezeau,48.5333,-4.65,53.85,100,75,3.44,FR,1696374147
374,badger,64.8,-147.5333,33.98,92,100,0.0,US,1696374147
375,darwin,-12.4611,130.8418,82.38,74,20,5.75,AU,1696374147
376,santa marta,11.2408,-74.199,83.89,76,75,17.27,CO,1696374147
377,zelenogorskiy,55.0333,87.0,36.34,89,13,1.16,RU,1696374148
378,fort mcmurray,56.7268,-111.381,58.59,54,100,9.22,CA,1696373848
379,kuraymah,18.55,31.85,92.59,10,0,8.48,SD,1696374148
380,nampa,43.5407,-116.5635,66.7,68,40,4.61,US,1696374148
381,aykhal,66.0,111.5,24.06,95,100,11.01,RU,1696374148
382,ilhabela,-23.7781,-45.3581,69.6,91,70,8.08,BR,1696374149
383,kailua-kona,19.6406,-155.9956,85.28,68,75,11.5,US,1696373914
384,dalianwan,39.0286,121.695,68.04,73,0,6.71,CN,1696374149
385,nabire,-3.3667,135.4833,80.24,76,79,3.94,ID,1696374150
386,tibanbang,6.6315,126.1055,81.61,79,18,4.07,PH,1696374150
387,waingapu,-9.6567,120.2641,78.76,79,6,3.44,ID,1696374150
388,nar'yan-mar,67.6713,53.087,39.11,78,100,21.0,RU,1696374150
389,guangyuan,32.442,105.823,63.03,91,100,4.99,CN,1696374151
390,umba,66.6871,34.3429,42.4,93,74,3.0,RU,1696374151
391,fuxin,42.0156,121.6589,53.94,26,30,8.75,CN,1696374151
392,omutinskiy,56.4745,67.6709,51.64,66,100,11.86,RU,1696374151
393,khorugh,37.4897,71.553,47.95,52,11,2.04,TJ,1696373901
394,kachug,53.9606,105.8817,41.05,88,100,3.0,RU,1696374152
395,borzna,51.2546,32.4269,53.58,55,48,11.88,UA,1696374152
396,mogocha,53.7333,119.7667,29.75,75,7,5.99,RU,1696374152
397,glace bay,46.1969,-59.957,63.05,82,75,6.91,CA,1696374148
398,karasburg,-28.0167,18.75,70.07,22,2,2.17,NA,1696374152
399,kargasok,59.0556,80.8572,43.97,96,88,5.01,RU,1696374153
400,bomadi,5.1593,5.9252,76.14,94,100,1.83,NG,1696374153
401,kununurra,-15.7667,128.7333,82.38,69,82,3.44,AU,1696374153
402,mount vernon,40.9126,-73.8371,77.63,74,5,3.0,US,1696374027
403,sanctuary point,-35.1114,150.629,70.99,46,100,10.71,AU,1696374153
404,sretensk,52.2453,117.7093,30.94,63,0,3.09,RU,1696374154
405,smithers,54.7804,-127.1743,48.52,87,100,3.44,CA,1696374154
406,emerald,-23.5333,148.1667,74.34,63,45,14.03,AU,1696374057
407,tateyama,34.9833,139.8667,69.1,77,97,11.81,JP,1696374154
408,thunder bay,48.4001,-89.3168,78.78,50,75,10.36,CA,1696374154
409,guerrero negro,27.9769,-114.0611,73.33,58,45,11.83,MX,1696373921
410,saint-philippe,-21.3585,55.7679,71.19,89,97,15.01,RE,1696374155
411,christchurch,-43.5333,172.6333,63.32,67,71,10.36,NZ,1696373860
412,akonolinga,3.7667,12.25,68.45,99,75,2.53,CM,1696374155
413,sonoita,31.85,-112.8333,85.55,19,0,9.04,MX,1696374155
414,fisterra,42.9049,-9.2629,65.01,82,27,17.4,ES,1696374155
415,sao gabriel da cachoeira,-0.1303,-67.0892,84.15,56,100,1.25,BR,1696374155
416,nadym,65.5333,72.5167,32.95,79,48,7.81,RU,1696374156
417,sungai raya,0.7,108.9,77.34,85,64,6.17,ID,1696374156
418,tirhanimine,35.2362,-3.9545,66.09,77,0,1.14,MA,1696374156
419,illizi,26.4833,8.4667,82.2,32,15,16.04,DZ,1696374072
420,mahdia,35.5047,11.0622,71.55,69,0,5.82,TN,1696374156
421,kingsford,-33.924,151.2275,79.77,52,0,19.57,AU,1696374157
422,san pedro pochutla,15.7333,-96.4667,80.31,72,94,6.02,MX,1696374157
423,la toma,-33.0526,-65.6238,46.67,89,92,12.12,AR,1696374157
424,russellville,35.2784,-93.1338,89.74,36,0,4.61,US,1696373914
425,ta`u,-14.2336,-169.5144,80.31,81,61,17.63,AS,1696374157
426,taroa,8.7058,171.2275,83.05,80,48,17.38,MH,1696374158
427,edmundston,47.3737,-68.3251,64.63,68,0,6.91,CA,1696374158
428,newman,37.3138,-121.0208,86.23,33,1,4.0,US,1696374158
429,tondano,1.3038,124.9112,69.89,64,21,2.51,ID,1696374158
430,la ronge,55.1001,-105.2842,52.05,76,100,9.22,CA,1696374158
431,undurkhaan,47.3194,110.6556,34.74,65,0,4.74,MN,1696374159
432,el calafate,-50.3408,-72.2768,44.44,80,17,8.61,AR,1696374159
433,san luis de la loma,17.2706,-100.8939,85.73,75,52,7.99,MX,1696374159
434,gao,16.6362,1.637,92.3,24,62,9.31,ML,1696374159
435,rio grande,-32.035,-52.0986,66.31,93,81,12.15,BR,1696374159
436,katima mulilo,-17.5,24.2667,71.83,35,100,6.15,NA,1696374160
437,al majaridah,19.1236,41.9111,86.74,36,0,2.93,SA,1696374160
438,belmonte,-15.8631,-38.8828,76.95,77,93,13.44,BR,1696374160
439,letterkenny,54.95,-7.7333,54.27,84,100,13.69,IE,1696374160
440,celestun,20.8667,-90.4,85.62,73,26,14.97,MX,1696374160
441,demopolis,32.5176,-87.8364,84.15,34,0,0.0,US,1696374003
442,les cayes,18.2,-73.75,83.43,75,59,3.15,HT,1696374161
443,igrim,63.1906,64.4162,45.01,75,100,7.0,RU,1696374161
444,marsa alam,25.0757,34.8918,81.84,56,0,20.36,EG,1696374161
445,carbonear,47.7332,-53.2148,59.41,89,93,6.11,CA,1696374161
446,ulanhot,46.0833,122.0833,46.36,39,41,21.83,CN,1696374161
447,mafra,-26.1114,-49.8053,66.15,93,80,3.09,BR,1696374161
448,vallenar,-28.5708,-70.7581,61.59,47,43,3.6,CL,1696374162
449,culfa,38.9558,45.6308,57.07,65,91,1.63,AZ,1696374162
450,tolanaro,-25.0319,46.9987,64.26,76,14,11.95,MG,1696374162
451,crane,31.3974,-102.3501,72.21,70,44,24.11,US,1696374162
452,fasa,28.9383,53.6482,70.84,24,0,6.91,IR,1696374163
453,northam,51.0333,-4.2167,57.65,87,69,13.67,GB,1696374163
454,gobabis,-22.45,18.9667,73.09,29,59,6.13,NA,1696374163
455,sosnovka,56.255,51.2842,44.82,92,36,4.0,RU,1696374163
456,bikenibeu village,1.3673,173.1241,85.96,74,40,6.91,KI,1696374163
457,nantucket,41.2835,-70.0995,66.25,88,0,10.36,US,1696374163
458,uliastay,47.7417,96.8444,32.74,44,1,5.37,MN,1696374164
459,kodinsk,58.6881,99.1844,44.44,93,100,8.1,RU,1696374164
460,korla,41.7597,86.1469,62.62,32,0,3.51,CN,1696374164
461,tyre,33.2733,35.1939,74.21,69,16,1.63,LB,1696374164
462,kirakira,-10.4544,161.9205,76.6,97,100,9.93,SB,1696374164
463,bure,10.7,37.0667,54.72,85,93,4.43,ET,1696374165
464,pontes e lacerda,-15.2261,-59.3353,94.48,31,75,9.17,BR,1696373892
465,hanzhong,33.0728,107.0303,61.23,95,100,2.17,CN,1696374165
466,puerto penasco,31.3167,-113.5333,83.3,34,0,14.05,MX,1696374165
467,poronaysk,49.2167,143.1167,47.28,82,14,3.27,RU,1696374165
468,puerto rico,-26.796,-55.024,71.69,98,60,4.61,AR,1696374165
469,valle nacional,17.7833,-96.3167,83.01,93,50,1.88,MX,1696374166
470,cerny most,50.1048,14.5797,59.38,77,75,21.85,CZ,1696374166
471,dambulla,7.86,80.6517,73.31,90,82,5.08,LK,1696374166
472,quinte west,44.1834,-77.5662,76.53,61,0,8.05,CA,1696374166
473,kendari,-3.945,122.4989,78.12,83,66,1.39,ID,1696374166
474,blenheim,-41.516,173.9528,64.53,43,33,4.0,NZ,1696373961
475,pasuquin,18.3328,120.6177,80.55,89,100,4.61,PH,1696374167
476,vila velha,-20.3297,-40.2925,72.95,92,100,6.91,BR,1696374042
477,taltal,-25.4,-70.4833,62.69,67,58,4.59,CL,1696374080
478,puerto maldonado,-12.6,-69.1833,84.6,74,0,3.44,PE,1696374038
479,antofagasta,-23.65,-70.4,61.88,82,20,13.87,CL,1696374013
480,makoua,0.0069,15.6333,75.0,89,97,3.18,CG,1696374168
481,guichon,-32.35,-57.2,61.36,84,100,7.72,UY,1696374168
482,togur,58.3631,82.8265,50.14,78,98,8.99,RU,1696374168
483,las veredas,23.1388,-109.7075,92.14,65,75,19.57,MX,1696374169
484,staryya darohi,53.0402,28.267,61.34,63,100,13.85,BY,1696374169
485,barbacoas,1.6715,-78.1398,76.28,92,98,3.11,CO,1696374169
486,solnechnyy,50.7214,136.6319,44.26,89,84,2.21,RU,1696374169
487,santo antonio do ica,-3.1022,-67.9397,86.65,43,92,2.1,BR,1696374169
488,el bayadh,33.6832,1.0193,66.85,45,0,2.3,DZ,1696374169
489,rinconada,19.35,-96.5167,87.26,64,77,4.7,MX,1696374170
490,tianshui,34.5439,105.6897,54.86,95,100,3.33,CN,1696374170
491,mugia,43.1041,-9.2179,65.16,84,12,20.98,ES,1696374170
492,mil'kovo,55.6078,37.7956,54.1,62,99,14.92,RU,1696374170
493,coquimbo,-29.9533,-71.3436,62.33,63,20,10.36,CL,1696374017
494,chudovo,59.1167,31.6833,59.22,89,100,15.01,RU,1696374171
495,barcelos,41.5388,-8.6151,73.92,74,61,2.95,PT,1696374171
496,tamanrasset,22.785,5.5228,75.11,38,40,4.61,DZ,1696374171
497,sena madureira,-9.0656,-68.6569,86.81,49,94,1.5,BR,1696374171
498,itamaraca,-7.7478,-34.8256,80.65,66,53,9.6,BR,1696374066
499,siraha,26.6541,86.2087,75.87,94,100,8.77,NP,1696374172
500,lerwick,60.1545,-1.1494,50.0,72,45,24.67,GB,1696374172
501,vernon,50.2581,-119.2691,71.29,47,27,2.3,CA,1696374172
502,banda aceh,5.5577,95.3222,79.43,81,100,4.68,ID,1696374172
503,hasaki,35.7333,140.8333,68.29,63,100,14.72,JP,1696374173
504,selfoss,63.9331,-20.9971,44.04,87,100,8.16,IS,1696374173
505,adrar,20.5022,-10.0711,92.48,16,88,8.39,MR,1696374173
506,luckenwalde,52.0833,13.1667,55.98,91,49,5.99,DE,1696374173
507,gwadar,25.1216,62.3254,82.45,69,4,9.78,PK,1696374135
508,jayapura,-2.5333,140.7,81.79,80,83,4.21,ID,1696374173
509,sao tome,0.3365,6.7273,79.12,85,86,6.35,ST,1696374173
510,nizhnesortymskiy,62.4397,71.7603,44.01,89,100,10.94,RU,1696374174
511,meung-sur-loire,47.8312,1.6958,53.11,85,0,4.61,FR,1696374174
512,san juan,-31.5375,-68.5364,58.62,55,46,19.37,AR,1696373891
513,belize city,17.4995,-88.1976,86.02,79,20,4.61,BZ,1696374174
514,los frentones,-26.4077,-61.4137,90.01,34,68,7.27,AR,1696374174
515,fada,9.5667,8.3,68.34,90,96,2.37,NG,1696374174
516,soio,-6.1349,12.3689,75.85,90,29,1.86,AO,1696374175
517,cape canaveral,28.4058,-80.6048,81.09,76,0,16.11,US,1696373986
518,betio village,1.358,172.9211,86.04,71,51,5.08,KI,1696374175
519,badiyah,22.45,58.8,78.87,44,1,2.13,OM,1696374175
520,howard springs,-12.497,131.047,82.31,62,58,3.76,AU,1696374175
521,tocopilla,-22.092,-70.1979,67.21,69,23,14.14,CL,1696374176
522,buinsk,54.95,48.2833,47.43,85,59,5.39,RU,1696374176
523,cooper's town,26.8667,-77.5167,81.0,68,5,12.46,BS,1696374176
524,charters towers,-20.1,146.2667,75.87,60,93,13.8,AU,1696374176
525,argo,37.6333,22.7333,62.78,64,0,3.2,GR,1696374176
526,barao de cocais,-19.9458,-43.4872,77.38,91,63,2.91,BR,1696374176
527,zhangjiakou,40.81,114.8794,50.97,57,35,7.31,CN,1696374177
528,marine corps base hawaii - mcbh,21.4453,-157.7513,86.05,72,3,3.0,US,1696374177
529,uricani,45.3373,23.1524,52.2,70,1,0.58,RO,1696374177
530,novyy urgal,51.0736,132.5642,40.98,78,100,3.24,RU,1696374177
531,valderice,38.0401,12.6151,68.29,66,6,4.03,IT,1696374177
532,nadi,-17.8,177.4167,75.2,69,75,6.91,FJ,1696374067
533,piton saint-leu,-21.2196,55.3151,69.87,88,100,10.36,RE,1696374178
534,viveiro,43.6623,-7.5934,67.23,85,85,17.74,ES,1696374178
535,mishkino,55.3389,63.9175,52.7,68,100,10.0,RU,1696374178
536,srivardhan,18.0333,73.0167,77.13,85,85,0.87,IN,1696374178
537,san jose de jachal,-30.2406,-68.7469,54.86,52,0,16.75,AR,1696374178
538,bouar,5.934,15.596,67.06,95,86,2.98,CF,1696374179
539,plettenberg bay,-34.0527,23.3716,60.73,90,79,8.39,ZA,1696374179
540,nizhnyaya tura,58.6293,59.8118,45.07,95,79,4.9,RU,1696374179
541,hovd,48.0056,91.6419,42.19,57,96,2.82,MN,1696374179
542,tingo maria,-9.2895,-76.0088,74.26,91,99,1.63,PE,1696374179
543,alice springs,-23.7,133.8833,62.15,19,0,14.97,AU,1696374180
544,portland,45.5234,-122.6762,70.95,75,100,3.0,US,1696374015
545,fabens,31.5023,-106.1586,90.57,26,8,7.43,US,1696374180
546,paradip garh,20.3167,86.6167,78.73,91,100,7.61,IN,1696374081
547,phek,25.6667,94.5,57.83,99,62,1.72,IN,1696374180
548,radomyshl,50.4961,29.2291,54.64,60,35,10.51,UA,1696374181
549,gebeit,21.0667,36.3167,77.52,56,0,5.93,SD,1696374181
550,yerofey pavlovich,53.9667,121.9667,29.14,75,57,3.96,RU,1696374181
551,camacupa,-12.0167,17.4833,69.93,37,68,3.06,AO,1696374181
552,kingscliff,-28.2667,153.5667,75.72,73,100,17.27,AU,1696374181
553,sao vicente,-23.9631,-46.3919,73.58,26,58,4.47,BR,1696374053
554,el granada,37.5027,-122.4694,86.81,62,20,13.8,US,1696374182
555,cidade velha,14.9167,-23.6167,79.27,83,0,4.61,CV,1696374182
556,brisas de zicatela,15.8369,-97.0419,86.52,54,75,5.75,MX,1696374182
557,trumann,35.6737,-90.5073,84.31,27,98,8.01,US,1696374182
558,alo,7.4178,6.7371,74.97,96,100,2.26,NG,1696374182
559,beauvais,49.4167,2.0,51.64,93,0,3.44,FR,1696374183
560,broken hill,-31.95,141.4333,50.61,71,100,21.88,AU,1696374152
561,gandino,45.8079,9.8965,66.43,89,36,4.56,IT,1696374183
562,shakhtersk,48.0625,38.5167,53.42,60,3,3.56,UA,1696374183
563,siwa oasis,29.2041,25.5195,76.48,49,97,7.54,EG,1696374183
564,rawson,-43.3002,-65.1023,52.59,52,11,8.84,AR,1696374184
565,al bawiti,28.3492,28.8659,72.3,41,71,9.19,EG,1696374184
